"","X.1","X","id","name","latitude","longitude","latest","value"
"1","1","1","60","Haringey Roadside - UKA00260","51.5992999996794","-0.0682179997939666","2024-12-02T05:00:00Z","10"
"2","2","4","146","Southwark - A2 Old Kent Road","51.4804994936467","-0.0595528932573422","2024-12-02T10:00:00Z","8.7"
"3","3","7","149","Ealing - Horn Lane","51.518948","-0.265617","2024-12-02T10:00:00Z","19"
"4","4","8","150","London Haringey Priory Park South - UKA00568","51.5841279997181","-0.125254000001611","2024-12-02T05:00:00Z","61.46756"
"5","5","9","151","Tower Hamlets Roadside - UKA00257","51.5225299994224","-0.0421549996910654","2024-12-02T05:00:00Z","7.2675"
"6","6","10","152","Camden Kerbside - UKA00259","51.5442099997435","-0.17526899971392","2024-12-02T05:00:00Z","15"
"7","7","11","153","London Hillingdon - UKA00266","51.4963299997163","-0.460860999582473","2024-12-02T05:00:00Z","54.68218"
"8","8","12","154","London Marylebone Road - UKA00315","51.5225299994224","-0.1546110000805","2024-12-02T10:00:00Z","37.5"
"9","9","13","155","London N. Kensington - UKA00253","51.5210499994199","-0.213491999744541","2024-12-02T05:00:00Z","0.79827"
"10","10","15","157","Bexley - Slade Green Fidas","51.4659832746662","0.184877126994369","2024-12-02T10:00:00Z","5.5"
"11","11","17","159","London Westminster - UKA00435","51.4946699996591","-0.131930999642045","2024-12-02T05:00:00Z","3"
"12","12","151","225705","Bexley - Belvedere West","51.4946486813055","0.137279111232178","2024-12-02T09:00:00Z","2.8"
"13","13","152","225707","Enfield - Derby Road","51.614864007","-0.0507658363689","2024-12-02T10:00:00Z","22.7"
"14","14","154","225709","Croydon - Norbury","51.411349","-0.12311","2024-12-02T10:00:00Z","16.1"
"15","15","155","225710","Greenwich - Blackheath","51.472504","-0.012381","2024-12-02T10:00:00Z","10.6"
"16","16","156","225711","Enfield - Bowes Primary School","51.613865","-0.125338","2024-12-02T10:00:00Z","18.7"
"17","17","157","225713","Brent - ARK Franklin Primary Academy","51.5324054617809","-0.217718908639377","2024-12-02T10:00:00Z","10.4"
"18","18","158","225714","Bexley - Belvedere","51.4906102082147","0.158914493927518","2024-12-02T10:00:00Z","15.1"
"19","19","159","225715","Brent - Neasden Lane","51.552656","-0.248774","2024-12-02T10:00:00Z","25.8"
"20","20","161","225719","Brent - John Keble Primary School","51.537799","-0.247793","2024-12-02T10:00:00Z","19.7"
"21","21","163","225723","Brent - Ikea","51.552476","-0.258089","2024-12-02T09:00:00Z","3"
"22","22","164","225725","Bromley - Harwood Avenue","51.405546","0.018882","2024-12-02T10:00:00Z","27.7"
"23","23","165","225727","Barking and Dagenham - Scrattons Farm","51.529389","0.132857","2024-12-02T09:00:00Z","1.5"
"24","24","166","225730","Enfield - Prince of Wales School","51.66864334727","-0.02200720557","2024-12-02T10:00:00Z","5.1"
"25","25","168","225733","Ealing - Hanger Lane Gyratory","51.53085","-0.292488","2024-12-02T10:00:00Z","47.6"
"26","26","169","225734","Croydon - Purley Way A23","51.3622305655403","-0.117604507351392","2024-12-02T10:00:00Z","22.5"
"27","27","171","225736","Enfield - Bush Hill Park","51.6450367266602","-0.0661800662229116","2024-12-02T10:00:00Z","3.3"
"28","28","173","225741","Ealing - Acton Vale ","51.5038527919816","-0.254668101620372","2024-12-02T10:00:00Z","-1.1"
"29","29","176","225747","Greenwich - A206 Burrage Grove","51.490532","0.074003","2024-12-02T10:00:00Z","16.6"
"30","30","177","225751","Greenwich - Plumstead High Street","51.486957","0.095111","2024-12-02T10:00:00Z","-12.1"
"31","31","179","225755","Greenwich - John Harrison Way","51.4937746695818","0.0107796237032558","2024-12-02T10:00:00Z","3.2"
"32","32","182","225761","Greenwich - Woolwich Flyover","51.486884","0.017901","2024-12-02T10:00:00Z","48"
"33","33","183","225763","Havering - Rainham","51.520787459334","0.205460705694044","2024-12-02T10:00:00Z","16.6"
"34","34","185","225765","Lewisham - New Cross","51.474954","-0.039641","2024-12-02T09:00:00Z","12"
"35","35","186","225766","Lewisham - Deptford","51.4795312838203","-0.0252606031340197","2024-12-02T10:00:00Z","12.9"
"36","36","187","225767","Lambeth - Brixton Road","51.464113541162","-0.11458102695123","2024-12-02T10:00:00Z","6.8"
"37","37","188","225769","Greenwich - Fiveways Sidcup Rd A20","51.4346627060562","0.0642224671704697","2024-12-02T09:00:00Z","7.9"
"38","38","190","225771","Richmond Upon Thames - Barnes Wetlands","51.476168","-0.230427","2024-12-02T10:00:00Z","5.5"
"39","39","194","225776","Lewisham - Loampit Vale","51.4646910611736","-0.0160682432041527","2024-12-02T10:00:00Z","9"
"40","40","198","225782","Islington - Arsenal","51.557895","-0.106989","2024-12-02T10:00:00Z","8.4"
"41","41","202","225787","Southwark - Tower Bridge Road","51.5013906712066","-0.0782034373606952","2024-12-02T10:00:00Z","2.8"
"42","42","203","225789","Havering - Romford","51.572976","0.179079","2024-12-02T10:00:00Z","7.2"
"43","43","205","225791","Islington - Holloway Road","51.555378","-0.116146","2024-12-02T10:00:00Z","14.7"
"44","44","207","225793","Southwark - Elephant and Castle","51.4931557048667","-0.101527038274853","2024-12-02T10:00:00Z","5.2"
"45","45","208","225794","Southwark - Lower Road","51.4965604167321","-0.0530504472531612","2024-12-02T10:00:00Z","3"
"46","46","209","225796","Greenwich - Falconwood","51.4563","0.085606","2024-12-02T10:00:00Z","-0.4"
"47","47","210","225797","Greenwich - Westhorne Avenue","51.456357","0.040725","2024-12-02T10:00:00Z","37.7"
"48","48","211","225800","Greenwich - Trafalgar Road (Hoskins St)","51.4839072533485","0.000407396935849736","2024-12-02T10:00:00Z","9.8"
"49","49","212","225801","Westminster - Elizabeth Bridge","51.4922482333024","-0.147114752900186","2024-12-02T10:00:00Z","6"
"50","50","213","225802","Southwark - Vicarage Grove","51.4735803479615","-0.0877818536754426","2024-12-02T10:00:00Z","13"
"51","51","214","225803","London Honor Oak Park - UKA00656","51.449673999553","-0.0374179999415852","2024-12-02T10:00:00Z","6"
"52","52","216","225805","Wandsworth - Lavender Hill (Clapham Jct)","51.4636903568111","-0.166713485994806","2024-12-02T10:00:00Z","12.2"
"53","53","218","225807","Westminster - Covent Garden","51.5119769825798","-0.12162720332856","2024-12-02T10:00:00Z","18.2"
"54","54","228","225839","Wandsworth - Battersea","51.4794395281222","-0.141786953606306","2024-12-02T10:00:00Z","6"
"55","55","232","225848","Westminster - Oxford Street","51.5139287404213","-0.152792701881935","2024-12-02T10:00:00Z","11"
"56","56","233","225850","Wandsworth - Tooting High Street","51.429331","-0.166524","2024-12-02T10:00:00Z","15"
"57","57","234","225851","Wandsworth - Putney","51.4650325059122","-0.215824580947572","2024-12-02T09:00:00Z","6"
"58","58","235","225852","Wandsworth - Putney High Street","51.463429","-0.215871","2024-12-02T10:00:00Z","17"
"59","59","236","227058","Newham - Britannia Gate","51.503858","0.020574415","2024-12-02T09:00:00Z","4"
"60","60","238","227060","Newham - Hoola Tower","51.508198","0.015002152","2024-12-02T10:00:00Z","20.8"
"61","61","239","230827","Southwark - South Circular Road","51.442633","-0.077653974","2024-12-02T10:00:00Z","3.1"
"62","62","240","270693","Waterloo Place (The Crown Estate)","51.5075819137762","-0.133068372704093","2024-12-02T02:00:00Z","20.6"
"63","63","250","1235983","Islington","51.5465402591367","-0.0907452421552941","2024-12-02T11:00:00Z","0.0580357164144516"
"64","64","251","1462792","UAL Creative Computing Institute, Greencoat Building","51.4723090811869","-0.0860062392925502","2024-12-02T11:00:00Z","1.51770835618178"
"65","65","252","2453304","Marylebone Road","51.52224","-0.15657","2024-12-02T11:00:00Z","6.73750003178914"
"66","66","253","2453309","Honor Oak Park","51.451186","-0.039428","2024-12-02T11:00:00Z","1.2041666607062"
"67","67","254","2453312","Honor Oak Park","51.451186","-0.039428","2024-12-02T11:00:00Z","12.2444444497426"
"68","68","255","2453319","Marylebone Road","51.52224","-0.15657","2024-12-02T11:00:00Z","13.558333158493"
"69","69","256","2659910","Borehamwood Meadow Park - UKA00644","51.6612289992477","-0.270671000067318","2024-12-02T05:00:00Z","2.48625"
"70","70","262","2984093","Maiden Lane, London","51.5423","-0.1285","2024-12-02T11:00:00Z","0.492559526115656"
"71","71","263","3039088","Farthing downs","51.3082","-0.1365","2024-12-02T11:00:00Z","0.213833335787058"
"73","73","269","3057945","Harlesden LP2","51.53469","-0.23755","2024-12-02T10:51:55Z","3.48"
"74","74","270","3057946","Harlesden HP2","51.53356","-0.24096","2024-12-02T10:50:09Z","3.44"
"75","75","271","3057947","Harlesden HP1","51.53505","-0.24312","2024-12-02T10:51:57Z","4.7"
"76","76","272","3057948","Harlesden LP1","51.53536","-0.24114","2024-12-02T11:06:18Z","3.53"
"77","77","273","3079185","Stondon Walk","51.531674","0.045623","2024-12-02T11:00:00Z","0.033500000834465"
"78","78","275","3261167","Primrose Hill","51.5395","-0.1519","2024-12-02T11:00:00Z","0"
"79","79","276","3278199","Perivale, Buckingham Ave","51.54084","-0.321103","2024-12-02T11:00:00Z","0.908333341280619"
